[
    {"name": "Times Square", "country": "US", "lat": 40.758, "lon": -73.985, "tz": "America/New_York", "source": "windy", "category": "city", "tags": ["square", "pedestrian"]},
    {"name": "Manhattan Midtown", "country": "US", "lat": 40.754, "lon": -73.990, "tz": "America/New_York", "source": "windy", "category": "city", "tags": ["street"]},
    {"name": "Chicago Loop", "country": "US", "lat": 41.882, "lon": -87.628, "tz": "America/Chicago", "source": "windy", "category": "city", "tags": ["street"]},
    {"name": "San Francisco Union Square", "country": "US", "lat": 37.788, "lon": -122.407, "tz": "America/Los_Angeles", "source": "windy", "category": "city", "tags": ["square"]},
    {"name": "Las Vegas Strip", "country": "US", "lat": 36.114, "lon": -115.172, "tz": "America/Los_Angeles", "source": "windy", "category": "city", "tags": ["street", "pedestrian"]},
    {"name": "New Orleans French Quarter", "country": "US", "lat": 29.958, "lon": -90.064, "tz": "America/Chicago", "source": "windy", "category": "city", "tags": ["square"]},
    {"name": "Miami South Beach", "country": "US", "lat": 25.781, "lon": -80.130, "tz": "America/New_York", "source": "windy", "category": "city", "tags": ["pedestrian"]},
    {"name": "Shibuya Crossing", "country": "JP", "lat": 35.659, "lon": 139.700, "tz": "Asia/Tokyo", "source": "windy", "category": "city", "tags": ["crossing", "pedestrian"]},
    {"name": "Shinjuku", "country": "JP", "lat": 35.693, "lon": 139.703, "tz": "Asia/Tokyo", "source": "windy", "category": "city", "tags": ["street", "pedestrian"]},
    {"name": "Akihabara", "country": "JP", "lat": 35.702, "lon": 139.774, "tz": "Asia/Tokyo", "source": "windy", "category": "city", "tags": ["street"]},
    {"name": "Osaka Dotonbori", "country": "JP", "lat": 34.669, "lon": 135.502, "tz": "Asia/Tokyo", "source": "windy", "category": "city", "tags": ["street", "pedestrian"]},
    {"name": "Kyoto Gion", "country": "JP", "lat": 35.003, "lon": 135.775, "tz": "Asia/Tokyo", "source": "windy", "category": "city", "tags": ["street"]},
    {"name": "Seoul Myeongdong", "country": "KR", "lat": 37.563, "lon": 126.985, "tz": "Asia/Seoul", "source": "windy", "category": "city", "tags": ["street", "pedestrian"]},
    {"name": "Seoul Gangnam", "country": "KR", "lat": 37.498, "lon": 127.028, "tz": "Asia/Seoul", "source": "windy", "category": "city", "tags": ["street"]},
    {"name": "Hong Kong Tsim Sha Tsui", "country": "HK", "lat": 22.298, "lon": 114.172, "tz": "Asia/Hong_Kong", "source": "windy", "category": "city", "tags": ["street", "pedestrian"]},
    {"name": "Mongkok", "country": "HK", "lat": 22.319, "lon": 114.170, "tz": "Asia/Hong_Kong", "source": "windy", "category": "city", "tags": ["street"]},
    {"name": "Singapore Marina Bay", "country": "SG", "lat": 1.281, "lon": 103.857, "tz": "Asia/Singapore", "source": "windy", "category": "city", "tags": ["square"]},
    {"name": "Bangkok Khao San Road", "country": "TH", "lat": 13.758, "lon": 100.497, "tz": "Asia/Bangkok", "source": "windy", "category": "city", "tags": ["street", "pedestrian"]},
    {"name": "Hanoi Old Quarter", "country": "VN", "lat": 21.035, "lon": 105.849, "tz": "Asia/Bangkok", "source": "windy", "category": "city", "tags": ["street"]},
    {"name": "Ho Chi Minh City Ben Thanh", "country": "VN", "lat": 10.772, "lon": 106.698, "tz": "Asia/Bangkok", "source": "windy", "category": "city", "tags": ["square"]},
    {"name": "Taipei Ximending", "country": "TW", "lat": 25.042, "lon": 121.508, "tz": "Asia/Taipei", "source": "windy", "category": "city", "tags": ["pedestrian"]},
    {"name": "Mumbai Gateway of India", "country": "IN", "lat": 18.922, "lon": 72.834, "tz": "Asia/Kolkata", "source": "windy", "category": "city", "tags": ["square"]},
    {"name": "Delhi Connaught Place", "country": "IN", "lat": 28.632, "lon": 77.220, "tz": "Asia/Kolkata", "source": "windy", "category": "city", "tags": ["square"]},
    {"name": "Dubai Marina Walk", "country": "AE", "lat": 25.080, "lon": 55.138, "tz": "Asia/Dubai", "source": "windy", "category": "city", "tags": ["pedestrian"]},
    {"name": "Istanbul Taksim Square", "country": "TR", "lat": 41.037, "lon": 28.985, "tz": "Europe/Istanbul", "source": "windy", "category": "city", "tags": ["square", "pedestrian"]},
    {"name": "Istanbul Grand Bazaar", "country": "TR", "lat": 41.011, "lon": 28.968, "tz": "Europe/Istanbul", "source": "windy", "category": "city", "tags": ["street"]},
    {"name": "London Piccadilly Circus", "country": "GB", "lat": 51.510, "lon": -0.134, "tz": "Europe/London", "source": "windy", "category": "city", "tags": ["square", "pedestrian"]},
    {"name": "London Oxford Street", "country": "GB", "lat": 51.515, "lon": -0.142, "tz": "Europe/London", "source": "windy", "category": "city", "tags": ["street", "pedestrian"]},
    {"name": "London Borough Market", "country": "GB", "lat": 51.505, "lon": -0.091, "tz": "Europe/London", "source": "windy", "category": "city", "tags": ["street"]},
    {"name": "Paris Champs-Elysees", "country": "FR", "lat": 48.873, "lon": 2.300, "tz": "Europe/Paris", "source": "windy", "category": "city", "tags": ["street", "pedestrian"]},
    {"name": "Paris Montmartre", "country": "FR", "lat": 48.887, "lon": 2.342, "tz": "Europe/Paris", "source": "windy", "category": "city", "tags": ["square"]},
    {"name": "Amsterdam Dam Square", "country": "NL", "lat": 52.373, "lon": 4.892, "tz": "Europe/Amsterdam", "source": "windy", "category": "city", "tags": ["square", "pedestrian"]},
    {"name": "Amsterdam Leidseplein", "country": "NL", "lat": 52.363, "lon": 4.882, "tz": "Europe/Amsterdam", "source": "windy", "category": "city", "tags": ["square"]},
    {"name": "Berlin Alexanderplatz", "country": "DE", "lat": 52.522, "lon": 13.413, "tz": "Europe/Berlin", "source": "windy", "category": "city", "tags": ["square", "pedestrian"]},
    {"name": "Munich Marienplatz", "country": "DE", "lat": 48.137, "lon": 11.575, "tz": "Europe/Berlin", "source": "windy", "category": "city", "tags": ["square", "pedestrian"]},
    {"name": "Vienna Stephansplatz", "country": "AT", "lat": 48.208, "lon": 16.373, "tz": "Europe/Vienna", "source": "windy", "category": "city", "tags": ["square", "pedestrian"]},
    {"name": "Prague Old Town Square", "country": "CZ", "lat": 50.087, "lon": 14.421, "tz": "Europe/Prague", "source": "windy", "category": "city", "tags": ["square", "pedestrian"]},
    {"name": "Budapest Vaci Street", "country": "HU", "lat": 47.494, "lon": 19.053, "tz": "Europe/Budapest", "source": "windy", "category": "city", "tags": ["street", "pedestrian"]},
    {"name": "Warsaw Old Town", "country": "PL", "lat": 52.249, "lon": 21.012, "tz": "Europe/Warsaw", "source": "windy", "category": "city", "tags": ["square"]},
    {"name": "Rome Piazza Navona", "country": "IT", "lat": 41.899, "lon": 12.473, "tz": "Europe/Rome", "source": "windy", "category": "city", "tags": ["square", "pedestrian"]},
    {"name": "Rome Trevi Fountain", "country": "IT", "lat": 41.901, "lon": 12.483, "tz": "Europe/Rome", "source": "windy", "category": "city", "tags": ["square"]},
    {"name": "Florence Piazza del Duomo", "country": "IT", "lat": 43.773, "lon": 11.256, "tz": "Europe/Rome", "source": "windy", "category": "city", "tags": ["square", "pedestrian"]},
    {"name": "Venice St Marks Square", "country": "IT", "lat": 45.434, "lon": 12.340, "tz": "Europe/Rome", "source": "windy", "category": "city", "tags": ["square", "pedestrian"]},
    {"name": "Barcelona Las Ramblas", "country": "ES", "lat": 41.381, "lon": 2.173, "tz": "Europe/Madrid", "source": "windy", "category": "city", "tags": ["street", "pedestrian"]},
    {"name": "Madrid Puerta del Sol", "country": "ES", "lat": 40.417, "lon": -3.703, "tz": "Europe/Madrid", "source": "windy", "category": "city", "tags": ["square", "pedestrian"]},
    {"name": "Lisbon Alfama", "country": "PT", "lat": 38.714, "lon": -9.133, "tz": "Europe/Lisbon", "source": "windy", "category": "city", "tags": ["street"]},
    {"name": "Athens Syntagma Square", "country": "GR", "lat": 37.975, "lon": 23.735, "tz": "Europe/Athens", "source": "windy", "category": "city", "tags": ["square", "pedestrian"]},
    {"name": "Dubrovnik Old City", "country": "HR", "lat": 42.641, "lon": 18.108, "tz": "Europe/Zagreb", "source": "windy", "category": "city", "tags": ["street", "pedestrian"]},
    {"name": "Copenhagen Stroget", "country": "DK", "lat": 55.679, "lon": 12.573, "tz": "Europe/Copenhagen", "source": "windy", "category": "city", "tags": ["street", "pedestrian"]},
    {"name": "Stockholm Gamla Stan", "country": "SE", "lat": 59.325, "lon": 18.071, "tz": "Europe/Stockholm", "source": "windy", "category": "city", "tags": ["street"]},
    {"name": "Oslo Karl Johans Gate", "country": "NO", "lat": 59.913, "lon": 10.741, "tz": "Europe/Oslo", "source": "windy", "category": "city", "tags": ["street", "pedestrian"]},
    {"name": "Zurich Bahnhofstrasse", "country": "CH", "lat": 47.375, "lon": 8.537, "tz": "Europe/Zurich", "source": "windy", "category": "city", "tags": ["street", "pedestrian"]},
    {"name": "Moscow Red Square", "country": "RU", "lat": 55.754, "lon": 37.620, "tz": "Europe/Moscow", "source": "windy", "category": "city", "tags": ["square", "pedestrian"]},
    {"name": "Marrakech Jemaa el-Fnaa", "country": "MA", "lat": 31.626, "lon": -7.989, "tz": "Africa/Casablanca", "source": "windy", "category": "city", "tags": ["square", "pedestrian"]},
    {"name": "Cape Town V&A Waterfront", "country": "ZA", "lat": -33.904, "lon": 18.420, "tz": "Africa/Johannesburg", "source": "windy", "category": "city", "tags": ["square"]},
    {"name": "Sydney Circular Quay", "country": "AU", "lat": -33.861, "lon": 151.211, "tz": "Australia/Sydney", "source": "windy", "category": "city", "tags": ["square", "pedestrian"]},
    {"name": "Melbourne Flinders Street", "country": "AU", "lat": -37.818, "lon": 144.967, "tz": "Australia/Melbourne", "source": "windy", "category": "city", "tags": ["square"]},
    {"name": "Buenos Aires Florida Street", "country": "AR", "lat": -34.601, "lon": -58.374, "tz": "America/Argentina/Buenos_Aires", "source": "windy", "category": "city", "tags": ["street", "pedestrian"]},
    {"name": "Mexico City Zocalo", "country": "MX", "lat": 19.432, "lon": -99.133, "tz": "America/Mexico_City", "source": "windy", "category": "city", "tags": ["square", "pedestrian"]},
    {"name": "Bogota La Candelaria", "country": "CO", "lat": 4.597, "lon": -74.076, "tz": "America/Bogota", "source": "windy", "category": "city", "tags": ["square"]},
    {"name": "Toronto Yonge-Dundas", "country": "CA", "lat": 43.656, "lon": -79.380, "tz": "America/Toronto", "source": "windy", "category": "city", "tags": ["square", "pedestrian"]},
    {"name": "Vancouver Granville", "country": "CA", "lat": 49.282, "lon": -123.120, "tz": "America/Vancouver", "source": "windy", "category": "city", "tags": ["street"]},
    {"name": "Swiss Alps", "country": "CH", "lat": 46.6, "lon": 8.0, "tz": "Europe/Zurich", "source": "windy", "category": "nature"},
    {"name": "Santorini", "country": "GR", "lat": 36.4, "lon": 25.4, "tz": "Europe/Athens", "source": "windy", "category": "nature"},
    {"name": "Bali", "country": "ID", "lat": -8.4, "lon": 115.2, "tz": "Asia/Makassar", "source": "windy", "category": "nature"},
    {"name": "Maui", "country": "US", "lat": 20.8, "lon": -156.3, "tz": "Pacific/Honolulu", "source": "windy", "category": "nature"},
    {"name": "Tromso", "country": "NO", "lat": 69.6, "lon": 19.0, "tz": "Europe/Oslo", "source": "windy", "category": "nature"}
]
